{
  "type": "FeatureCollection",
  "note": "SEED FILE — real LandSearch listings (fetched July 14, 2026) with REAL prices, acreages, and listing URLs. Coordinates are APPROXIMATE (city-level) — every address is suffixed (approx). Replace with an Apify Land.com dataset export for parcel-precise locations.",
  "features": [
    { "type": "Feature", "geometry": { "type": "Point", "coordinates": [-91.00, 41.17] },
      "properties": { "address": "Bluff Rd, New Boston, IL 61272 (approx)", "price": 2772821, "acres": 351, "status": "FOR_SALE",
        "url": "https://www.landsearch.com/properties/bluff-rd-new-boston-il-61272/5329967" } },
    { "type": "Feature", "geometry": { "type": "Point", "coordinates": [-87.70, 39.61] },
      "properties": { "address": "18707 E 1500th Rd, Paris, IL 61944 (approx)", "price": 5900000, "acres": 367, "status": "FOR_SALE",
        "url": "https://www.landsearch.com/properties/18707-e-1500th-rd-paris-il-61944/5360043" } },
    { "type": "Feature", "geometry": { "type": "Point", "coordinates": [-90.43, 38.97] },
      "properties": { "address": "17816 Powerline Rd, Grafton, IL 62037 (approx)", "price": 1375000, "acres": 261, "status": "FOR_SALE",
        "url": "https://www.landsearch.com/properties/17816-powerline-rd-grafton-il-62037/5393036" } },
    { "type": "Feature", "geometry": { "type": "Point", "coordinates": [-89.24, 40.98] },
      "properties": { "address": "N Pattonsburg Rd / County Rd 100N, La Rose, IL 61541 (approx)", "price": 1679420, "acres": 128, "status": "FOR_SALE",
        "url": "https://www.landsearch.com/properties/n-pattonsburg-roadand-county-road-100n-la-rose-il-61541/5145258" } },
    { "type": "Feature", "geometry": { "type": "Point", "coordinates": [-88.49, 37.37] },
      "properties": { "address": "Climer Rd, Golconda, IL 62938 (approx)", "price": 565150, "acres": 127, "status": "FOR_SALE",
        "url": "https://www.landsearch.com/properties/climer-rd-golconda-il-62938/5405700" } },
    { "type": "Feature", "geometry": { "type": "Point", "coordinates": [-89.62, 42.30] },
      "properties": { "address": "Structo Rd, Freeport, IL 61032 (approx)", "price": 735000, "acres": 117, "status": "FOR_SALE",
        "url": "https://www.landsearch.com/properties/structo-rd-freeport-il-61032/5320311" } },
    { "type": "Feature", "geometry": { "type": "Point", "coordinates": [-90.57, 41.45] },
      "properties": { "address": "Ridgewood Rd, Milan, IL 61264 (approx)", "price": 1078800, "acres": 93, "status": "FOR_SALE",
        "url": "https://www.landsearch.com/properties/ridgewood-rd-milan-il-61264/5305621" } },
    { "type": "Feature", "geometry": { "type": "Point", "coordinates": [-90.96, 40.03] },
      "properties": { "address": "2950 E St, Clayton, IL 62324 (approx)", "price": 699000, "acres": 85, "status": "FOR_SALE",
        "url": "https://www.landsearch.com/properties/2950-e-st-clayton-il-62324/5381114" } },
    { "type": "Feature", "geometry": { "type": "Point", "coordinates": [-90.46, 41.43] },
      "properties": { "address": "2201 US Highway 6, Coal Valley, IL 61240 (approx)", "price": 607700, "acres": 81.5, "status": "FOR_SALE",
        "url": "https://www.landsearch.com/properties/2201-us-highway-6-coal-valley-il-61240/5374145" } },
    { "type": "Feature", "geometry": { "type": "Point", "coordinates": [-90.16, 40.79] },
      "properties": { "address": "243 IL Route 97, Maquon, IL 61458 (approx)", "price": 570000, "acres": 80, "status": "FOR_SALE",
        "url": "https://www.landsearch.com/properties/243-il-route-97-maquon-il-61458/5332942" } },
    { "type": "Feature", "geometry": { "type": "Point", "coordinates": [-90.15, 40.80] },
      "properties": { "address": "1502 Knox Rd 300 N, Maquon, IL 61458 (approx)", "price": 590000, "acres": 75, "status": "FOR_SALE",
        "url": "https://www.landsearch.com/properties/1502-knox-rd-300-n-maquon-il-61458/5332775" } },
    { "type": "Feature", "geometry": { "type": "Point", "coordinates": [-89.51, 41.29] },
      "properties": { "address": "15503 North Ave, Tiskilwa, IL 61368 (approx)", "price": 640000, "acres": 71, "status": "FOR_SALE",
        "url": "https://www.landsearch.com/properties/15503-north-ave-tiskilwa-il-61368/5298781" } },
    { "type": "Feature", "geometry": { "type": "Point", "coordinates": [-89.49, 40.92] },
      "properties": { "address": "N Fantasy Ln, Chillicothe, IL 61523 (approx)", "price": 445000, "acres": 48, "status": "FOR_SALE",
        "url": "https://www.landsearch.com/properties/n-fantasy-ln-chillicothe-il-61523/5339685" } },
    { "type": "Feature", "geometry": { "type": "Point", "coordinates": [-88.34, 37.73] },
      "properties": { "address": "Wildcat Ln, Equality Township, IL 62934 (approx)", "price": 220000, "acres": 40, "status": "FOR_SALE",
        "url": "https://www.landsearch.com/properties/wildcat-ln-equality-township-il-62934/5408529" } },
    { "type": "Feature", "geometry": { "type": "Point", "coordinates": [-89.91, 38.01] },
      "properties": { "address": "Shawneetown Trail / Perdy Rd, Ellis Grove, IL 62241 (approx)", "price": 496925, "acres": 35.8, "status": "FOR_SALE",
        "url": "https://www.landsearch.com/properties/shawneetown-trail-perdy-rd-ellis-grove-il-62241/5157780" } },
    { "type": "Feature", "geometry": { "type": "Point", "coordinates": [-89.37, 38.61] },
      "properties": { "address": "Louse Creek Rd, Carlyle, IL 62231 (approx)", "price": 150000, "acres": 13.7, "status": "FOR_SALE",
        "url": "https://www.landsearch.com/properties/louse-creek-rd-carlyle-il-62231/5349830" } },
    { "type": "Feature", "geometry": { "type": "Point", "coordinates": [-88.71, 41.33] },
      "properties": { "address": "2805 E Route 6, Marseilles, IL 61341 (approx)", "price": 280000, "acres": 10.3, "status": "FOR_SALE",
        "url": "https://www.landsearch.com/properties/2805-e-route-6-marseilles-il-61341/5406249" } },
    { "type": "Feature", "geometry": { "type": "Point", "coordinates": [-88.43, 42.47] },
      "properties": { "address": "10617 Button Rd, Hebron, IL 60034 (approx)", "price": 550000, "acres": 6.2, "status": "FOR_SALE",
        "url": "https://www.landsearch.com/properties/10617-button-rd-hebron-il-60034/5375035" } }
  ]
}
